[
        {
            "latitude": 40.6971494,
            "longitude": -74.2598747,
            "city": "New York",
            "area": 8683,
            "Rank": 1
        },
        {
            "latitude": 35.4526439,
            "longitude": 139.4567198,
            "city": "Tokyo",
            "area": 6993,
            "Rank": 2
        },
        {
            "latitude": 41.8333925,
            "longitude": -88.0121569,
            "city": "Chicago",
            "area": 5498,
            "Rank": 3
        },
        {
            "latitude": 33.1147951,
            "longitude": -94.2114611,
            "city": "Atlanta",
            "area": 5083,
            "Rank": 4
        },
        {
            "latitude": 40.0024137,
            "longitude": -75.2581194,
            "city": "Philadelphia",
            "area": 4661,
            "Rank": 5
        },
        {
            "latitude": 42.3142647,
            "longitude": -71.11037,
            "city": "Boston",
            "area": 4497,
            "Rank": 6
        },
        {
            "latitude": 34.0201613,
            "longitude": -118.6919306,
            "city": "Los Angeles",
            "area": 4320,
            "Rank": 7
        },
        {
            "latitude": 32.8203525,
            "longitude": -97.0117413,
            "city": "Dallas",
            "area": 3644,
            "Rank": 8
        },
        {
            "latitude": 31.2590796,
            "longitude": -95.6476923,
            "city": "Houston",
            "area": 3355,
            "Rank": 9
        },
        {
            "latitude": 42.3526257,
            "longitude": -83.239291,
            "city": "Detroit",
            "area": 3267,
            "Rank": 10
        },
        {
            "latitude": 47.2510905,
            "longitude": -123.1255834,
            "city": "Washington",
            "area": 2996,
            "Rank": 11
        },
        {
            "latitude": 25.7823907,
            "longitude": -80.2994995,
            "city": "Miami",
            "area": 2891,
            "Rank": 12
        },
        {
            "latitude": 35.1468253,
            "longitude": 136.7862238,
            "city": "Nagoya",
            "area": 2875,
            "Rank": 13
        },
        {
            "latitude": 48.8588377,
            "longitude": 2.2770198,
            "city": "Paris",
            "area": 2723,
            "Rank": 14
        },
        {
            "latitude": 50.1781141,
            "longitude": 2.4939991,
            "city": "Essen",
            "area": 2642,
            "Rank": 15
        },
        {
            "latitude": 34.677518,
            "longitude": 135.3455988,
            "city": "Osaka",
            "area": 2564,
            "Rank": 16
        },
        {
            "latitude": 47.6129432,
            "longitude": -122.4821496,
            "city": "Seattle",
            "area": 2470,
            "Rank": 17
        },
        {
            "latitude": -26.1715046,
            "longitude": 27.9699835,
            "city": "Johannesburg",
            "area": 2396,
            "Rank": 18
        },
        {
            "latitude": 44.9706114,
            "longitude": -93.4015641,
            "city": "Minneapolis",
            "area": 2316,
            "Rank": 19
        },
        {
            "latitude": 19.3892246,
            "longitude": -70.1305136,
            "city": "San Juan",
            "area": 2309,
            "Rank": 20
        },
        {
            "latitude": -34.6157437,
            "longitude": -60.5733857,
            "city": "Buenos Aires",
            "area": 2266,
            "Rank": 21
        },
        {
            "latitude": 40.4313473,
            "longitude": -80.050541,
            "city": "Pittsburgh",
            "area": 2208,
            "Rank": 22
        },
        {
            "latitude": 55.580748,
            "longitude": 36.8251027,
            "city": "Moscow",
            "area": 2150,
            "Rank": 23
        },
        {
            "latitude": 38.6530169,
            "longitude": -90.3835487,
            "city": "St. Louis",
            "area": 2147,
            "Rank": 24
        },
        {
            "latitude": -37.9712368,
            "longitude": 144.4926562,
            "city": "Melbourne",
            "area": 2080,
            "Rank": 25
        },
        {
            "latitude": 27.9941986,
            "longitude": -82.7344819,
            "city": "Tampa",
            "area": 2078,
            "Rank": 26
        },
        {
            "latitude": 23.29296,
            "longitude": -105.6587494,
            "city": "Mexico",
            "area": 2072,
            "Rank": 27
        },
        {
            "latitude": 13.0555127,
            "longitude": 80.1330167,
            "city": "Phoenix",
            "area": 2069,
            "Rank": 28
        },
        {
            "latitude": 32.8242404,
            "longitude": -117.3891773,
            "city": "San Diego",
            "area": 2026,
            "Rank": 29
        },
        {
            "latitude": -23.6821604,
            "longitude": -46.8755027,
            "city": "Sao Paulo",
            "area": 1968,
            "Rank": 30
        },
        {
            "latitude": 39.2846225,
            "longitude": -76.7605725,
            "city": "Baltimore",
            "area": 1768,
            "Rank": 31
        },
        {
            "latitude": 39.1362562,
            "longitude": -84.680488,
            "city": "Cincinnati",
            "area": 1740,
            "Rank": 32
        },
        {
            "latitude": 45.5576996,
            "longitude": -74.0104927,
            "city": "Montreal",
            "area": 1740,
            "Rank": 33
        },
        {
            "latitude": -33.3465295,
            "longitude": 134.409569,
            "city": "Sydney",
            "area": 1687,
            "Rank": 34
        },
        {
            "latitude": 41.497447,
            "longitude": -81.8459461,
            "city": "Cleveland",
            "area": 1676,
            "Rank": 35
        },
        {
            "latitude": 43.6565353,
            "longitude": -79.6010416,
            "city": "Toronto",
            "area": 1655,
            "Rank": 36
        },
        {
            "latitude": 51.528308,
            "longitude": 0.3817841,
            "city": "London",
            "area": 1623,
            "Rank": 37
        },
        {
            "latitude": 3.1384965,
            "longitude": 101.5468996,
            "city": "Kuala Lumpur",
            "area": 1606,
            "Rank": 38
        },
        {
            "latitude": -27.3810232,
            "longitude": 152.4326904,
            "city": "Brisbane",
            "area": 1603,
            "Rank": 39
        },
        {
            "latitude": -22.913885,
            "longitude": -43.7261859,
            "city": "Rio de Janeiro",
            "area": 1580,
            "Rank": 40
        },
        {
            "latitude": 45.4626482,
            "longitude": 9.0376468,
            "city": "Milan",
            "area": 1554,
            "Rank": 41
        },
        {
            "latitude": 38.477368,
            "longitude": -100.564023,
            "city": "Kansas",
            "area": 1514,
            "Rank": 42
        },
        {
            "latitude": 39.7797003,
            "longitude": -86.2728365,
            "city": "Indianapolis",
            "area": 1432,
            "Rank": 43
        },
        {
            "latitude": 14.5964957,
            "longitude": 120.94454,
            "city": "Manila",
            "area": 1399,
            "Rank": 44
        },
        {
            "latitude": 37.7576793,
            "longitude": -122.5076406,
            "city": "San Francisco",
            "area": 1365,
            "Rank": 45
        },
        {
            "latitude": 36.7953408,
            "longitude": -76.2928249,
            "city": "Virginia Beach",
            "area": 1364,
            "Rank": 46
        },
        {
            "latitude": -6.229728,
            "longitude": 106.6894282,
            "city": "Jakarta",
            "area": 1360,
            "Rank": 47
        },
        {
            "latitude": 41.8169712,
            "longitude": -71.4912209,
            "city": "Providence",
            "area": 1304,
            "Rank": 48
        },
        {
            "latitude": 30.0594699,
            "longitude": 31.1884235,
            "city": "Cairo",
            "area": 1295,
            "Rank": 49
        },
        {
            "latitude": 28.6466772,
            "longitude": 76.8130623,
            "city": "Delhi",
            "area": 1295,
            "Rank": 50
        }
    ]
